City_ID,City,Lat,Lng,Max Temp,Humidity,Cloudiness,Wind Speed,Country,Date
0,acapulco de juarez,16.8634,-99.8901,30.9,66,40,4.12,MX,1694566028
1,hermanus,-34.4187,19.2345,8.92,79,0,4.88,ZA,1694566112
2,iskateley,67.6803,53.1512,11.13,84,13,7.38,RU,1694566112
3,yakeshi,49.2833,120.7333,10.61,52,100,2.34,CN,1694566112
4,west island,-12.1568,96.8225,25.99,78,75,6.17,CC,1694566112
5,kotlas,61.2611,46.6556,11.14,87,7,1.79,RU,1694565923
6,peterhead,57.5058,-1.7981,6.36,69,4,3.06,GB,1694566112
7,jiexiu,37.0244,111.9125,20.54,65,4,1.4,CN,1694566112
8,stanley,54.868,-1.6985,8.62,92,20,2.57,GB,1694566113
9,morondava,-20.2833,44.2833,23.22,69,0,4.53,MG,1694566113
10,byford,-32.2167,116.0,17.82,86,100,10.8,AU,1694566113
11,miandrivazo,-19.5167,45.4667,22.53,71,6,0.87,MG,1694566113
12,wailua homesteads,22.0669,-159.378,28.44,64,20,6.17,US,1694566113
13,port-aux-francais,-49.35,70.2167,1.49,76,98,11.44,TF,1694566113
14,mahalapye,-23.1041,26.8142,11.11,69,0,7.0,BW,1694566113
15,blackmans bay,-43.0167,147.3167,18.47,42,100,3.01,AU,1694566114
16,hesla,24.0667,85.8833,26.06,86,96,1.19,IN,1694566114
17,waitangi,-43.9535,-176.5597,11.57,69,6,5.36,NZ,1694566114
18,papatowai,-46.5619,169.4708,9.28,73,92,8.71,NZ,1694566114
19,al muwayh,22.4333,41.7583,28.9,28,97,3.41,SA,1694566114
20,daru,-9.0763,143.2092,27.06,66,98,7.43,PG,1694566114
21,adamstown,-25.066,-130.1015,18.46,59,100,11.17,PN,1694566115
22,talnakh,69.4865,88.3972,4.56,91,100,3.55,RU,1694566115
23,saipan,15.1355,145.701,31.39,74,40,5.14,MP,1694566115
24,chonchi,-42.6128,-73.8092,8.56,94,82,1.29,CL,1694566115
25,badger,64.8,-147.5333,13.41,66,0,0.0,US,1694566115
26,whitehorse,60.7161,-135.0538,13.9,53,75,6.17,CA,1694566022
27,hamilton,39.1834,-84.5333,20.24,90,100,2.06,US,1694565930
28,remire-montjoly,4.9167,-52.2667,27.02,83,0,2.06,GF,1694566115
29,ribeira grande,38.5167,-28.7,23.21,90,75,1.34,PT,1694566116
30,ushuaia,-54.8,-68.3,3.81,70,0,2.06,AR,1694566023
31,hawaiian paradise park,19.5933,-154.9731,27.8,70,0,1.79,US,1694566116
32,bredasdorp,-34.5322,20.0403,5.79,89,0,2.14,ZA,1694566116
33,grand falls-windsor,48.9332,-55.6649,13.06,94,100,2.41,CA,1694565963
34,pisco,-13.7,-76.2167,20.01,77,5,7.2,PE,1694566022
35,udangudi,8.4333,78.0167,26.37,78,100,4.7,IN,1694566116
36,massakory,12.996,15.7293,29.27,59,100,3.02,TD,1694566116
37,er regueb,34.8593,9.7865,23.7,70,17,2.57,TN,1694566117
38,beloyarskiy,63.7119,66.6722,11.11,85,14,0.45,RU,1694566117
39,picture rocks,32.3459,-111.2462,33.75,41,16,2.57,US,1694566117
40,petropavlovka,50.6114,105.3196,12.72,73,100,0.33,RU,1694566117
41,punta del este,-34.9667,-54.95,11.6,76,0,1.03,UY,1694566117
42,kill devil hills,36.0307,-75.676,26.66,78,0,2.57,US,1694565884
43,nyazepetrovsk,56.0531,59.6028,9.99,79,55,1.34,RU,1694566117
44,yellowknife,62.456,-114.3525,17.45,75,40,1.54,CA,1694566118
45,santa elena de uairen,4.6167,-61.1333,22.48,70,72,1.28,VE,1694566118
46,puerto natales,-51.7236,-72.4875,3.17,79,100,1.13,CL,1694566118
47,port mathurin,-19.6833,63.4167,22.47,72,100,6.97,MU,1694566118
48,tiksi,71.6872,128.8694,5.61,86,100,5.82,RU,1694566118
49,olonkinbyen,70.9221,-8.7187,3.59,65,71,3.37,SJ,1694566118
50,smithers,54.7804,-127.1743,16.18,67,40,3.09,CA,1694566118
51,college,64.8569,-147.8028,13.45,68,75,0.0,US,1694566119
52,kodiak,57.79,-152.4072,10.73,76,100,2.57,US,1694566119
53,cabo san lucas,22.8909,-109.9124,32.61,74,40,5.14,MX,1694565597
54,kulhudhuffushi,6.6221,73.07,27.89,75,100,4.27,MV,1694566119
55,st. john's,47.5649,-52.7093,14.32,93,75,5.14,CA,1694565701
56,bankim,6.083,11.4905,19.45,98,42,0.42,CM,1694566119
57,i-n-salah,27.1935,2.4607,33.71,18,7,5.25,DZ,1694566119
58,utrik,11.2278,169.8474,28.26,77,99,6.51,MH,1694566119
59,aykhal,66.0,111.5,2.98,96,100,9.95,RU,1694566120
60,fort atkinson,42.9289,-88.8371,16.07,94,80,0.61,US,1694566120
61,namibe,-15.1961,12.1522,16.53,92,26,1.69,AO,1694566120
62,gori,41.9842,44.1158,12.79,91,67,0.54,GE,1694566120
63,albany,42.6001,-73.9662,21.3,87,100,1.2,US,1694565916
64,grytviken,-54.2811,-36.5092,-9.75,75,61,4.95,GS,1694566120
65,bethel,41.3712,-73.414,22.57,85,0,1.54,US,1694566091
66,ghadamis,30.1337,9.5007,26.78,22,0,4.1,LY,1694566120
67,bikenibeu village,1.3673,173.1241,29.98,79,75,1.03,KI,1694566121
68,aldan,58.6031,125.3894,4.17,89,100,1.24,RU,1694566121
69,ilulissat,69.2167,-51.1,4.01,87,75,1.03,GL,1694566121
70,rayevskiy,54.0658,54.9468,11.86,85,100,0.42,RU,1694566121
71,mount gambier,-37.8333,140.7667,21.39,41,91,2.95,AU,1694566121
72,nicoya,10.1483,-85.452,25.83,88,100,1.62,CR,1694566121
73,ancud,-41.8697,-73.8203,7.74,87,50,3.22,CL,1694566122
74,thompson,55.7435,-97.8558,17.09,48,40,4.63,CA,1694566122
75,warmbad,-28.45,18.7333,10.3,22,0,5.33,NA,1694566122
76,edinburgh of the seven seas,-37.0676,-12.3116,11.86,68,29,9.39,SH,1694566122
77,port elizabeth,-33.918,25.5701,14.16,67,0,6.69,ZA,1694566122
78,park city,42.3484,-87.8842,17.92,80,0,1.54,US,1694566122
79,malvan,16.0667,73.4667,26.08,83,96,2.09,IN,1694566122
80,margaret river,-33.95,115.0667,15.87,88,100,13.75,AU,1694566123
81,raton,36.9034,-104.4391,17.19,67,100,4.12,US,1694566123
82,dhidhdhoo,6.8833,73.1,27.95,75,100,4.81,MV,1694565916
83,san patricio,28.017,-97.5169,32.97,59,7,6.28,US,1694566123
84,morteros,-30.7116,-61.9986,12.23,34,72,4.07,AR,1694566123
85,ziniare,12.5822,-1.2983,27.02,79,100,2.54,BF,1694566123
86,weno,7.4515,151.8468,31.97,74,75,2.57,FM,1694566124
87,mamadysh,55.7152,51.408,11.6,87,45,2.24,RU,1694566124
88,isangel,-19.55,169.2667,26.06,69,75,4.12,VU,1694566124
89,chervyen',53.7059,28.4313,14.17,67,8,3.4,BY,1694566124
90,beihai,21.4833,109.1,28.13,81,83,4.02,CN,1694566124
91,galatsi,38.0192,23.7571,22.92,46,0,5.14,GR,1694566124
92,san juan de miraflores,-12.1629,-76.9635,17.87,87,76,3.3,PE,1694566124
93,georgetown,5.4112,100.3354,26.96,81,20,2.68,MY,1694566040
94,bayji,34.9311,43.487,29.2,25,0,3.22,IQ,1694566125
95,punta arenas,-53.15,-70.9167,7.06,57,100,6.17,CL,1694566125
96,hilo,19.7297,-155.09,27.92,74,0,0.89,US,1694565955
97,susuman,62.7833,148.1667,5.73,70,100,1.99,RU,1694566125
98,xinmin,41.9908,122.8253,20.77,41,0,1.13,CN,1694566125
99,vadso,70.0744,29.7487,8.09,81,100,3.09,NO,1694566125
100,holualoa,19.6228,-155.9522,27.91,81,75,5.14,US,1694566125
101,port lincoln,-34.7333,135.8667,20.62,43,65,4.9,AU,1694566126
102,jamestown,42.097,-79.2353,17.77,98,100,2.57,US,1694565999
103,wucheng,29.6008,118.175,24.53,97,100,1.17,CN,1694566126
104,selfoss,63.9331,-20.9971,3.36,82,100,3.25,IS,1694566126
105,yemetsk,63.4721,41.7941,9.29,90,53,3.39,RU,1694566126
106,udachny,66.4167,112.4,3.03,100,100,10.71,RU,1694566126
107,colonia,50.9333,6.95,19.92,89,100,2.06,DE,1694566126
108,smara,26.7384,-11.6719,20.7,79,0,6.29,EH,1694566127
109,san antonio de pale,-1.4014,5.6325,23.6,83,79,6.11,GQ,1694566127
110,alofi,-19.0595,-169.9187,25.94,69,75,7.2,NU,1694565986
111,isafjordur,66.0755,-23.124,7.28,76,100,2.92,IS,1694566127
112,qaqortoq,60.7167,-46.0333,3.93,76,4,0.78,GL,1694566127
113,lebu,-37.6167,-73.65,9.06,86,18,0.31,CL,1694566127
114,kyabe,9.4515,18.9449,23.14,92,28,0.3,TD,1694566127
115,dudinka,69.4058,86.1778,4.79,83,100,6.02,RU,1694566128
116,klyuchi,52.2667,79.1667,12.92,74,100,2.68,RU,1694566128
117,bonthe,7.5264,-12.505,24.81,92,29,1.88,SL,1694566128
118,new norfolk,-42.7826,147.0587,18.57,41,100,2.29,AU,1694566128
119,upington,-28.4478,21.2561,5.21,24,0,1.03,ZA,1694566128
120,enewetak,11.3474,162.3373,29.23,76,65,6.92,MH,1694566128
121,mejit,10.2753,170.8646,28.67,76,19,6.17,MH,1694566128
122,waiuku,-37.25,174.75,17.61,70,10,5.42,NZ,1694566129
123,as sulayyil,20.4607,45.5779,33.14,17,0,2.8,SA,1694566129
124,jining,35.405,116.5814,23.36,74,31,4.12,CN,1694566129
125,redencao,-4.2258,-38.7306,22.74,93,0,1.01,BR,1694566129
126,petropavlovsk-kamchatsky,53.0452,158.6483,11.33,94,75,3.0,RU,1694565998
127,tranas,58.0372,14.9782,13.55,81,87,1.78,SE,1694566129
128,pauri,30.15,78.7833,20.05,95,69,0.8,IN,1694565983
129,guerrero negro,27.9769,-114.0611,24.61,69,0,6.78,MX,1694566129
130,avarua,-21.2078,-159.775,24.03,64,20,5.66,CK,1694566130
131,bayanhongor,46.7167,100.1167,11.9,42,100,1.19,MN,1694566130
132,alesund,62.4723,6.1549,10.97,78,75,2.57,NO,1694566130
133,mocimboa,-11.3167,40.35,23.08,84,62,1.55,MZ,1694566130
134,huarmey,-10.0681,-78.1522,19.04,82,13,5.36,PE,1694566130
135,carnarvon,-24.8667,113.6333,21.12,67,1,9.64,AU,1694566130
136,ust-nera,64.5667,143.2,5.71,51,9,2.56,RU,1694566131
137,puerto aysen,-45.4,-72.7,2.75,99,79,2.06,CL,1694566131
138,waingapu,-9.6567,120.2641,28.62,53,2,6.1,ID,1694566131
139,ostersund,63.1792,14.6357,9.25,76,15,6.69,SE,1694566025
140,datong,40.0936,113.2914,17.64,63,51,2.64,CN,1694566131
141,ukata,10.8312,5.8249,20.73,93,100,1.65,NG,1694566131
142,tazovsky,67.4667,78.7,6.32,76,100,4.82,RU,1694566132
143,ballina,-28.8667,153.5667,20.99,60,0,3.07,AU,1694566132
144,raymondville,26.4815,-97.7831,33.48,62,0,6.04,US,1694565895
145,aasiaat,68.7098,-52.8699,0.69,98,100,5.75,GL,1694566132
146,east london,-33.0153,27.9116,13.75,67,32,6.86,ZA,1694566132
147,saint-pierre,-21.3393,55.4781,22.82,64,100,1.54,RE,1694566132
148,iqaluit,63.7506,-68.5145,3.85,86,100,7.72,CA,1694566132
149,walvis bay,-22.9575,14.5053,12.53,47,0,1.03,NA,1694566132
150,bilibino,68.0546,166.4372,6.74,69,96,1.1,RU,1694566133
151,luanda,-8.8368,13.2343,21.0,88,20,2.57,AO,1694565534
152,itaituba,-4.2761,-55.9836,31.09,66,20,0.0,BR,1694565967
153,zhelezinka,53.54,75.3072,10.52,93,100,5.95,KZ,1694566133
154,puerto ayora,-0.7393,-90.3518,24.19,89,41,2.24,EC,1694566133
155,kos,36.8933,27.2889,24.69,51,0,5.33,GR,1694565990
156,kollam,8.8833,76.6,25.54,86,100,2.79,IN,1694566133
157,afaahiti,-17.75,-149.2833,25.93,78,94,10.3,PF,1694566134
158,villa gesell,-37.2639,-56.973,9.47,69,98,2.57,AR,1694566134
159,port alfred,-33.5906,26.891,12.32,75,46,2.24,ZA,1694566134
160,donggang,28.9365,114.2259,21.24,96,100,1.01,CN,1694566134
161,tralee,52.2704,-9.7026,9.31,91,63,1.37,IE,1694566134
162,mazagao,-0.115,-51.2894,28.03,73,15,2.99,BR,1694566134
163,dryden,49.7833,-92.7503,11.16,54,0,1.54,CA,1694566135
164,torrington,41.8007,-73.1212,21.0,93,25,0.74,US,1694566135
165,angaur state,6.906,134.13,28.61,75,100,4.79,PW,1694566135
166,campbell river,50.0163,-125.2446,15.74,94,100,1.54,CA,1694565850
167,kapuskasing,49.4169,-82.4331,9.05,93,75,3.6,CA,1694566135
168,kirakira,-10.4544,161.9205,28.58,73,100,5.44,SB,1694566135
169,kedougou,12.5579,-12.1743,27.32,94,0,1.03,SN,1694566135
170,nelson bay,-32.7167,152.15,22.22,68,0,1.79,AU,1694566135
171,mtwara,-10.2667,40.1833,23.3,83,26,3.48,TZ,1694566136
172,invercargill,-46.4,168.35,8.9,84,74,9.83,NZ,1694566136
173,athni,16.7333,75.0667,21.0,92,62,4.07,IN,1694566136
174,geraldton,-28.7667,114.6,20.23,73,40,12.35,AU,1694566136
175,volksrust,-27.3654,29.8818,4.91,83,100,2.1,ZA,1694566136
176,scottburgh,-30.2867,30.7532,12.7,81,13,3.03,ZA,1694566136
177,shache,38.4167,77.2406,24.84,25,0,6.27,CN,1694566137
178,puerto madryn,-42.7692,-65.0385,12.17,44,0,2.99,AR,1694566100
179,port moresby,-9.4431,147.1797,28.68,58,75,6.69,PG,1694566007
180,sinabang,2.4803,96.3801,27.05,84,98,2.88,ID,1694566137
181,pacasmayo,-7.4006,-79.5714,19.0,83,10,7.37,PE,1694566137
182,mutum,-19.8,-41.4383,20.2,89,1,1.23,BR,1694566137
183,altamira,-3.2033,-52.2064,27.63,47,74,1.35,BR,1694566137
184,mount pearl,47.5166,-52.7813,13.86,94,75,5.14,CA,1694566137
185,bengkulu,-3.8004,102.2655,25.01,77,13,1.77,ID,1694566138
186,kupang,-10.1667,123.5833,30.32,51,20,9.26,ID,1694566138
187,tura,25.5198,90.2201,24.58,96,100,1.93,IN,1694566138
188,kigali,-1.95,30.0588,16.71,100,40,0.0,RW,1694566138
189,gijang,35.2442,129.2139,25.85,71,100,3.55,KR,1694566138
190,biltine,14.5333,20.9167,26.27,64,100,4.26,TD,1694566138
191,mega,4.05,38.3,17.36,69,11,4.1,ET,1694566138
192,hotan,37.0997,79.9269,22.31,18,0,3.58,CN,1694566139
193,longyearbyen,78.2186,15.6401,0.91,86,75,1.54,SJ,1694566139
194,kangaba,11.9333,-8.4167,24.83,84,100,1.56,ML,1694566139
195,hadibu,12.65,54.0333,26.33,81,57,7.27,YE,1694566139
196,aleksandrovsk-sakhalinskiy,50.8975,142.1561,16.83,59,0,4.72,RU,1694566139
197,saudarkrokur,65.7461,-19.6394,4.95,66,100,4.34,IS,1694566139
198,santyoku,37.4406,129.1708,21.05,92,100,3.34,KR,1694566139
199,konstantinovka,49.6167,127.9833,14.09,54,0,4.7,RU,1694566140
200,ola,59.5833,151.2833,7.86,92,100,4.3,RU,1694566140
201,flin flon,54.7682,-101.865,15.63,51,15,2.87,CA,1694566140
202,shingu,33.7333,135.9833,27.86,70,98,2.61,JP,1694566140
203,mpongwe,-13.5091,28.155,24.27,29,0,5.84,ZM,1694566140
204,inarajan village,13.2736,144.7484,31.89,83,60,4.23,GU,1694566140
205,plastun,44.7561,136.2939,18.41,50,100,2.29,RU,1694566141
206,fale old settlement,-9.3852,-171.2468,28.48,73,17,5.27,TK,1694566141
207,taurage,55.2522,22.2897,16.59,83,29,0.89,LT,1694566141
208,constantia,44.1833,28.65,15.39,67,0,2.87,RO,1694565861
209,touros,-5.1989,-35.4608,25.07,79,9,6.68,BR,1694566141
210,okhotsk,59.3833,143.3,7.58,89,100,5.72,RU,1694566141
211,kailua-kona,19.6406,-155.9956,29.98,80,75,5.14,US,1694566141
212,haiku-pauwela,20.9219,-156.3051,29.01,56,20,13.38,US,1694566142
213,tolanaro,-25.0319,46.9987,20.04,88,20,4.12,MG,1694566142
214,luderitz,-26.6481,15.1594,16.25,39,0,3.4,NA,1694566142
215,oulmes,33.4258,-6.0014,14.87,77,0,1.73,MA,1694566142
216,dunedin,-45.8742,170.5036,14.33,37,8,2.68,NZ,1694566142
217,lihue,21.9789,-159.3672,28.77,65,20,6.17,US,1694566143
218,xining,36.6167,101.7667,12.47,59,5,1.34,CN,1694566143
219,nuuk,64.1835,-51.7216,4.34,87,100,11.32,GL,1694566114
220,bafoulabe,13.8065,-10.8321,26.61,83,100,1.83,ML,1694566143
221,boksitogorsk,59.474,33.8485,13.67,87,93,2.71,RU,1694566143
222,laojunmiao,39.8333,97.7333,20.4,22,5,1.92,CN,1694566143
223,keflavik,64.0049,-22.5624,8.24,81,100,8.23,IS,1694566143
224,makokou,0.5738,12.8642,20.67,95,6,1.24,GA,1694566144
225,kerikeri,-35.2268,173.9474,18.84,65,59,2.24,NZ,1694566144
226,terme,41.2092,36.9739,14.96,77,9,3.37,TR,1694566144
227,gereida,11.2811,25.1414,25.12,81,99,1.62,SD,1694566144
228,kiunga,-6.1219,141.2906,26.13,72,100,2.98,PG,1694566144
229,pangody,65.85,74.4859,7.24,70,98,3.79,RU,1694566144
230,orai,25.9833,79.4667,28.36,81,100,1.08,IN,1694566145
231,cill airne,52.05,-9.5167,8.99,92,69,0.81,IE,1694566145
232,lompoc,34.6391,-120.4579,22.79,83,2,2.24,US,1694566145
233,millom,54.2107,-3.272,9.93,81,13,3.6,GB,1694566145
234,saldanha,-33.0117,17.9442,6.03,73,1,4.33,ZA,1694566145
235,valga,57.7778,26.0473,13.33,92,41,2.04,EE,1694566145
236,santo antonio do ica,-3.1022,-67.9397,24.82,87,94,1.27,BR,1694566145
237,bambari,5.768,20.6757,21.99,97,100,0.32,CF,1694566146
238,mount isa,-20.7333,139.5,25.87,22,0,8.23,AU,1694566146
239,las praderas,-3.3348,-79.7984,24.74,84,29,0.23,EC,1694566146
240,cockburn town,21.4612,-71.1419,29.25,77,100,8.64,TC,1694566146
241,ekibastuz,51.6667,75.3667,11.5,88,99,2.84,KZ,1694566146
242,puerto baquerizo moreno,-0.9,-89.6,23.51,77,91,4.34,EC,1694566146
243,mil'kovo,55.6078,37.7956,10.03,76,0,1.92,RU,1694566146
244,katsuren-haebaru,26.3369,127.8719,31.01,79,20,4.63,JP,1694566146
245,rawson,-43.3002,-65.1023,9.3,54,5,3.59,AR,1694566147
246,perstorp,56.1383,13.3948,16.51,100,75,1.54,SE,1694566147
247,polyarnyy,69.1989,33.4478,9.51,93,100,5.44,RU,1694566147
248,canmore,51.0834,-115.3521,20.45,48,99,1.54,CA,1694565614
249,richards bay,-28.783,32.0377,13.31,76,34,0.48,ZA,1694566082
250,westport,41.1415,-73.3579,23.99,83,0,3.58,US,1694566147
251,imuris,30.7833,-110.8667,31.72,33,5,5.27,MX,1694566147
252,vorgashor,67.5833,63.95,7.78,92,28,6.49,RU,1694566148
253,quellon,-43.1167,-73.6167,8.14,87,100,1.03,CL,1694566148
254,forster,-32.1667,152.5167,21.27,59,0,3.43,AU,1694566148
255,anadyr,64.75,177.4833,9.28,61,0,7.0,RU,1694566148
256,palikir - national government center,6.9248,158.1611,30.47,74,100,2.06,FM,1694566148
257,crane,31.3974,-102.3501,22.39,66,94,6.03,US,1694566148
258,nyurba,63.2842,118.3319,6.68,80,100,3.87,RU,1694566148
259,medicine hat,50.0501,-110.6683,27.55,30,75,4.63,CA,1694566022
260,tidjikja,18.5564,-11.4271,32.4,38,99,6.06,MR,1694566149
261,greymouth,-42.4667,171.2,11.48,70,69,3.9,NZ,1694566149
262,rio grande,-32.035,-52.0986,10.53,82,100,6.88,BR,1694565919
263,srandakan,-7.9386,110.2506,25.9,73,86,4.26,ID,1694566149
264,gadzhiyevo,69.2551,33.3362,9.27,92,100,5.33,RU,1694566149
265,san angelo,31.4638,-100.437,22.12,80,100,3.09,US,1694566149
266,les anglais,18.3054,-74.2197,27.94,80,30,2.13,HT,1694566149
267,labrador city,52.9463,-66.9114,7.95,93,100,1.03,CA,1694566150
268,tari,12.4086,4.4914,24.24,82,100,4.59,NG,1694566150
269,weyburn,49.6668,-103.8511,22.12,26,100,6.69,CA,1694566150
270,waat,51.1454,6.4958,19.39,98,100,1.54,DE,1694566150
271,yangjiang,21.85,111.9667,27.38,85,95,2.42,CN,1694566150
272,effingham,32.3669,-81.3332,27.97,84,1,2.38,US,1694566150
273,puerto lleras,3.0223,-73.4044,24.82,80,68,1.2,CO,1694566150
274,ashland,40.8167,-82.2665,17.15,95,15,0.37,US,1694566151
275,whistler,50.1164,-122.9695,12.57,82,100,1.54,CA,1694566151
276,arraial do cabo,-22.9661,-42.0278,22.92,78,0,10.29,BR,1694566151
277,argo,37.6333,22.7333,20.73,51,0,1.89,GR,1694566151
278,kolyshley,52.7005,44.5367,7.7,95,21,2.84,RU,1694566151
279,al kawa,13.7463,32.4996,25.93,63,59,3.51,SD,1694566151
280,cidreira,-30.1811,-50.2056,15.93,93,100,6.26,BR,1694566151
281,gangtok,27.3333,88.6167,19.6,83,26,0.83,IN,1694566152
282,ma'an,26.9775,110.7211,20.13,95,100,2.22,CN,1694566152
283,atafu village,-8.5421,-172.5159,28.71,71,8,5.4,TK,1694566152
284,la'ie,21.6477,-157.9253,31.98,67,100,6.65,US,1694566152
285,muroto-misakicho,33.2833,134.15,27.1,76,77,3.66,JP,1694566152
286,conception bay south,47.4999,-52.9981,14.19,95,100,5.79,CA,1694566152
287,mehtar lam,34.6714,70.2094,25.39,24,0,1.68,AF,1694566152
288,kingston,17.997,-76.7936,31.53,70,20,6.17,JM,1694565892
289,shengli,37.4564,118.4856,25.47,44,23,3.77,CN,1694566153
290,volodarskiy,46.4013,48.5409,15.97,77,1,1.62,RU,1694566153
291,kiuruvesi,63.65,26.6167,15.94,97,100,3.91,FI,1694566153
292,san luis de la loma,17.2706,-100.8939,28.16,82,32,2.98,MX,1694566153
293,pechora,65.1472,57.2244,7.93,93,6,3.41,RU,1694566153
294,yaguajay,22.3272,-79.2378,26.91,85,23,3.9,CU,1694566153
295,puerto san jose,13.9256,-90.8244,27.75,75,11,0.8,GT,1694565973
296,hami,42.8,93.45,25.24,26,92,5.43,CN,1694566154
297,kenai,60.5544,-151.2583,13.05,76,100,2.57,US,1694566154
298,baotou,40.6522,109.8222,21.21,31,5,2.93,CN,1694566154
299,saint-joseph,-21.3667,55.6167,22.21,83,42,3.97,RE,1694566154
300,novyy urengoy,66.0833,76.6333,7.22,67,96,3.69,RU,1694566154
301,vorkuta,67.5,64.0,7.72,93,11,6.4,RU,1694566154
302,burang,30.25,81.1667,9.86,82,6,0.53,CN,1694566154
303,naracoorte,-36.9579,140.7383,19.34,56,76,2.37,AU,1694566155
304,kerewan,13.4898,-16.0888,24.7,92,11,2.75,GM,1694566155
305,bubaque,11.2833,-15.8333,27.49,82,95,4.73,GW,1694566155
306,luohe,33.5717,114.0353,22.39,81,82,4.28,CN,1694566155
307,svit,49.0601,20.2069,11.88,94,0,2.06,SK,1694566155
308,altai,46.3722,96.2583,12.95,48,100,5.54,MN,1694566155
309,mokhsogollokh,61.4681,128.9203,7.81,56,100,1.67,RU,1694566155
310,hithadhoo,-0.6,73.0833,27.95,78,86,5.64,MV,1694566156
311,la ronge,55.1001,-105.2842,21.14,43,75,6.17,CA,1694566156
312,luwuk,-0.9516,122.7875,28.13,61,94,3.91,ID,1694566156
313,severo-yeniseyskiy,60.3725,93.0408,7.03,82,88,0.72,RU,1694566156
314,santo amaro da imperatriz,-27.6881,-48.7786,21.9,88,17,1.41,BR,1694566156
315,seminole,28.7086,-81.2081,29.04,86,0,3.09,US,1694566156
316,itoman,26.1247,127.6694,31.01,74,75,5.14,JP,1694566157
317,alo,7.4178,6.7371,22.86,98,100,1.13,NG,1694566157
318,berezovyy,51.6667,135.7,14.9,45,14,3.9,RU,1694566157
319,nagqu,31.5,92.0,2.91,59,0,1.14,CN,1694566157
320,lebanon,36.2081,-86.2911,22.85,86,75,0.0,US,1694565879
321,santa cruz,-17.8,-63.1667,28.7,61,40,3.6,BO,1694566117
322,serdar,38.9764,56.2757,19.17,32,0,3.49,TM,1694566157
323,chauk,20.8833,94.8167,25.35,89,100,5.57,MM,1694566158
324,delta,5.5,6.0,23.27,98,100,1.05,NG,1694565845
325,karoi,-16.8099,29.6925,15.54,75,0,4.41,ZW,1694566158
326,titao,13.7667,-2.0667,28.65,53,100,5.3,BF,1694566158
327,kegeyli shahar,42.7767,59.6078,13.05,43,11,2.86,UZ,1694566158
328,lepsy,46.235,78.9456,16.16,41,0,7.04,KZ,1694566158
329,san andres,12.5847,-81.7006,29.01,84,20,1.54,CO,1694566081
330,bebedouro,-20.9494,-48.4792,24.56,29,0,2.85,BR,1694566159
331,porbandar,21.6422,69.6093,26.9,84,80,4.58,IN,1694566159
332,ayr,55.4627,-4.6339,9.96,81,0,2.57,GB,1694565925
333,taro,-8.3862,115.28,23.0,62,3,1.92,ID,1694566159
334,aswan,24.0934,32.907,30.61,25,0,2.06,EG,1694566159
335,vila velha,-20.3297,-40.2925,22.97,85,0,4.12,BR,1694565939
336,pacific grove,36.6177,-121.9166,20.77,85,75,4.12,US,1694566159
337,guozhen,34.3659,107.359,25.12,69,5,2.01,CN,1694566159
338,ixtapa,20.7,-105.2,27.76,92,86,1.21,MX,1694566160
339,todos santos,23.45,-110.2167,31.84,83,74,2.51,MX,1694566160
340,elesbao veloso,-6.2019,-42.1403,25.07,39,0,2.09,BR,1694566160
341,zheleznodorozhnyy,55.7503,38.0042,10.05,75,1,1.78,RU,1694566160
342,prince rupert,54.3161,-130.3201,15.05,82,40,5.14,CA,1694566160
343,sungai penuh,-2.0833,101.3833,21.95,71,9,0.99,ID,1694566160
344,aliganj,27.5,79.1833,26.05,89,95,2.54,IN,1694566161
345,ocean city,39.2776,-74.5746,24.99,81,27,1.79,US,1694566161
346,wanning,18.8003,110.3967,28.21,79,100,1.83,CN,1694566161
347,ar ruways,24.1103,52.7306,31.17,64,44,1.12,AE,1694566161
348,tayshet,55.9342,98.0044,11.25,71,100,0.61,RU,1694566161
349,kalevala,65.2,31.1667,15.91,94,100,4.58,RU,1694566161
350,graaff-reinet,-32.2522,24.5308,7.17,49,0,1.57,ZA,1694566162
351,singaraja,-8.112,115.0882,28.41,62,5,0.81,ID,1694566162
352,vilyuchinsk,52.9306,158.4028,12.15,91,100,1.53,RU,1694566162
353,arvayheer,46.2639,102.775,13.94,40,100,1.11,MN,1694566162
354,ajaccio,42.0,8.9167,18.03,68,0,3.09,FR,1694566162
355,murzuq,25.9155,13.9184,25.27,24,0,4.36,LY,1694566162
356,sisimiut,66.9395,-53.6735,4.48,78,100,5.89,GL,1694566162
357,uturoa,-16.7333,-151.4333,24.51,79,100,10.38,PF,1694566163
358,minas de marcona,-15.2119,-75.1103,11.77,86,41,6.8,PE,1694566163
359,qorveh,35.1664,47.8045,16.41,34,0,2.48,IR,1694566163
360,beichengqu,40.4394,113.1536,16.98,57,43,2.77,CN,1694566163
361,mossel bay,-34.1831,22.146,11.18,71,0,2.71,ZA,1694566163
362,hargeysa,9.56,44.065,23.52,55,100,8.5,SO,1694566163
363,manggar,-2.8833,108.2667,28.26,71,18,6.72,ID,1694566164
364,cururupu,-1.8283,-44.8683,25.23,81,1,2.67,BR,1694566164
365,suncho corral,-27.9336,-63.4294,14.38,33,100,4.11,AR,1694566164
366,san pedro pochutla,15.7333,-96.4667,30.84,84,38,1.76,MX,1694565977
367,saint-valery-en-caux,49.8667,0.7333,15.98,88,3,3.38,FR,1694565960
368,liaozhong,41.5061,122.7242,20.87,42,0,2.13,CN,1694566164
369,namsos,64.4662,11.4957,10.95,82,100,7.2,NO,1694566165
370,miracema do tocantins,-9.5618,-48.3967,32.06,28,79,1.92,BR,1694566165
371,sultanah,24.4926,39.5857,35.25,12,40,5.14,SA,1694566165
372,rikaze,29.25,88.8833,11.08,35,0,1.14,CN,1694566165
373,horseheads,42.167,-76.8205,20.43,94,100,5.14,US,1694566165
374,pemangkat,1.1667,108.9667,25.96,83,99,1.68,ID,1694566165
375,kupjansk,49.7209,37.5998,14.98,48,100,2.21,UA,1694566165
376,pama,11.2497,0.7075,25.17,90,100,2.43,BF,1694566166
377,mandera,3.9366,41.867,25.54,67,35,6.34,KE,1694566166
378,tofol,5.3248,163.0078,30.88,70,75,5.14,FM,1694566166
379,dickinson,29.4608,-95.0513,33.05,69,40,4.12,US,1694566166
380,howard springs,-12.497,131.047,30.46,43,6,5.98,AU,1694566166
381,ghat,24.9647,10.1728,26.14,24,0,1.19,LY,1694566166
382,kota kinabalu,5.9749,116.0724,23.99,94,40,3.09,MY,1694566166
383,hirara,24.8,125.2833,28.92,89,75,4.12,JP,1694566167
384,yeraliyev,43.2,51.65,18.6,60,100,2.09,KZ,1694566167
385,ciudad lazaro cardenas,17.9583,-102.2,28.65,79,100,3.43,MX,1694566167
386,beyneu,45.3167,55.2,18.77,52,100,1.81,KZ,1694566167
387,gimcheon,36.1218,128.1198,23.62,100,100,0.51,KR,1694566167
388,kununurra,-15.7667,128.7333,28.99,24,98,3.6,AU,1694565904
389,prado,-17.3411,-39.2208,22.27,86,12,2.91,BR,1694566167
390,kavaratti,10.5669,72.642,27.77,79,83,6.43,IN,1694566168
391,igarka,67.4667,86.5833,4.33,77,94,3.07,RU,1694566168
392,kavieng,-2.5744,150.7967,27.81,74,100,3.74,PG,1694566168
393,goondiwindi,-28.55,150.3167,22.41,32,0,1.11,AU,1694566168
394,barra de santo antonio,-9.4047,-35.5072,24.6,86,42,4.94,BR,1694566168
395,guaratinga,-16.5667,-39.5667,19.31,94,13,0.55,BR,1694566168
396,lubumbashi,-11.6609,27.4794,22.64,37,65,2.3,CD,1694566168
397,port-vila,-17.7338,168.3219,24.78,78,100,6.17,VU,1694566169
398,tame,6.461,-71.73,23.93,85,66,1.82,CO,1694566169
399,choibalsan,48.0667,114.5,15.0,36,11,4.45,MN,1694566169
400,barah,13.7,30.3667,25.95,67,20,2.39,SD,1694566169
401,coyhaique,-45.5752,-72.0662,5.34,98,60,2.48,CL,1694566110
402,dakhla,23.6848,-15.958,21.07,88,81,9.39,EH,1694566169
403,zhongshan,21.3226,110.5829,28.13,82,63,4.64,CN,1694566169
404,suva,-18.1416,178.4415,27.71,69,75,3.6,FJ,1694566170
405,karasu,41.071,30.7854,16.79,78,0,1.84,TR,1694566170
406,hinthada,17.6333,95.4667,24.08,99,100,2.6,MM,1694566170
407,beledweyne,4.7358,45.2036,25.01,73,99,7.73,SO,1694566170
408,kirensk,57.7853,108.1119,7.57,92,100,2.23,RU,1694566170
409,ipswich,52.0592,1.1555,14.92,92,100,6.69,GB,1694566170
410,saint-philippe,-21.3585,55.7679,22.77,86,63,4.9,RE,1694566170
411,salalah,17.0151,54.0924,28.05,83,75,2.06,OM,1694566171
412,bandarbeyla,9.4942,50.8122,25.31,79,21,10.72,SO,1694566171
413,kish,26.5578,54.0194,31.15,94,83,4.12,IR,1694566171
414,tsiombe,-25.3,45.4833,20.24,93,59,3.63,MG,1694566171
415,ati,13.2154,18.3353,26.46,66,100,1.7,TD,1694566171
416,macau,22.2006,113.5461,28.89,94,40,3.09,MO,1694565953
417,fort st. john,56.2499,-120.8529,18.94,48,100,7.72,CA,1694566158
418,santona,43.4439,-3.4576,19.56,91,14,2.4,ES,1694566172
419,taoudenni,22.6783,-3.9836,36.42,21,83,11.94,ML,1694566172
420,cooma,-36.2333,149.1333,18.16,32,4,1.4,AU,1694566172
421,vila franca do campo,37.7167,-25.4333,21.05,99,99,2.07,PT,1694566172
422,shakawe,-18.3667,21.85,13.85,19,0,2.88,BW,1694566172
423,tucuma,-0.1833,-50.05,25.58,78,5,3.49,BR,1694566172
424,yerofey pavlovich,53.9667,121.9667,10.35,51,24,1.4,RU,1694566172
425,oum hadjer,13.2954,19.6966,26.32,72,100,2.41,TD,1694566173
426,buka,40.8108,69.1986,13.94,42,0,0.56,UZ,1694566173
427,skovorodino,53.9833,123.9167,10.62,51,93,1.82,RU,1694566173
428,tabuk,17.4189,121.4443,27.46,79,33,1.27,PH,1694566173
429,alice springs,-23.7,133.8833,22.75,16,6,5.14,AU,1694566173
430,ceelbuur,4.685,46.6176,23.96,85,61,7.54,SO,1694566173
431,ulladulla,-35.35,150.4667,22.09,46,0,2.65,AU,1694566174
432,la sarre,48.8002,-79.1996,9.44,98,100,4.1,CA,1694566039
433,letlhakane,-21.4167,25.5833,10.76,77,4,9.38,BW,1694566174
434,imbituba,-28.24,-48.6703,18.39,91,100,3.74,BR,1694566142
435,montrose,38.4166,-108.2673,15.67,80,100,4.83,US,1694566030
436,kashmor,28.4333,69.5833,27.86,62,2,2.24,PK,1694566174
437,kapa'a,22.0752,-159.319,29.18,64,20,6.17,US,1694566174
438,papao,-17.75,-149.55,26.82,78,61,11.49,PF,1694566174
439,iwanai,42.9744,140.5089,24.36,73,70,1.54,JP,1694566175
440,hastings,50.8552,0.5729,17.18,44,100,5.81,GB,1694566175
441,manokwari,-0.8667,134.0833,26.8,75,100,1.1,ID,1694566175
442,suining,30.508,105.5733,22.88,81,0,1.67,CN,1694566175
443,ichnya,50.8626,32.3942,11.59,64,0,3.28,UA,1694566175
444,qamdo,31.1667,97.2333,3.59,61,0,0.5,CN,1694566175
445,tevriz,57.509,72.4042,6.39,94,0,2.32,RU,1694566176
446,balikpapan,-1.2675,116.8289,27.55,83,40,1.54,ID,1694566176
447,kyzyl-mazhalyk,51.1333,90.6,10.73,87,100,0.41,RU,1694566176
448,laminusa,5.5549,120.9136,27.75,76,100,5.85,PH,1694566176
449,sucua,-2.4667,-78.1667,20.3,94,14,1.76,EC,1694566176
450,miguel ahumada,30.6167,-106.5167,27.68,40,15,2.46,MX,1694566176
451,kabalo,-6.05,26.9167,25.16,64,100,0.11,CD,1694566177
452,al ghayzah,16.2079,52.176,27.72,85,96,1.91,YE,1694566177
453,caleta de carquin,-11.0925,-77.6267,18.48,83,34,6.13,PE,1694566177
454,usogorsk,63.4106,48.6872,8.81,94,0,2.91,RU,1694566177
455,dalai,45.5,124.3,17.24,43,100,3.24,CN,1694566177
456,jennings,38.7192,-90.2604,23.01,57,20,3.09,US,1694566178
457,malkapur,20.8833,76.2,22.8,89,51,4.16,IN,1694565905
458,sitka,57.0531,-135.33,13.94,88,75,3.09,US,1694565955
459,bolokhovo,54.0936,37.8183,13.62,55,100,2.26,RU,1694566178
460,sukhodol,53.9006,51.2117,11.16,90,99,1.45,RU,1694566178
461,ta'if,21.2703,40.4158,21.56,29,100,2.27,SA,1694566178
462,saint-malo,48.5,-1.8333,13.97,89,7,3.16,FR,1694566178
463,lankaran,38.7543,48.8506,18.04,100,100,2.06,AZ,1694566178
464,lazaro cardenas,17.9583,-102.2,28.65,79,100,3.43,MX,1694566179
465,nova vicosa,-17.8919,-39.3719,22.69,79,0,3.06,BR,1694566015
466,nova sintra,14.8667,-24.7167,24.87,80,3,4.08,CV,1694566179
467,taguatinga,-12.3857,-46.5711,30.48,26,92,1.91,BR,1694566179
468,ferkessedougou,9.6,-5.2,23.61,94,100,1.98,CI,1694566179
469,hobyo,5.3505,48.5268,25.08,90,50,9.44,SO,1694566179
470,szprotawa,51.5656,15.5366,20.91,74,48,1.74,PL,1694566179
471,cody,44.5263,-109.0565,25.58,34,0,2.57,US,1694566180
472,howrah,22.5892,88.3103,27.0,89,75,3.6,IN,1694566180
473,maba,24.6841,113.5984,27.15,89,95,0.58,CN,1694566180
474,mitu,1.1983,-70.1733,23.05,96,39,0.44,CO,1694566180
475,cabinda,-5.55,12.2,23.08,94,0,1.03,AO,1694566180
476,sinop,41.7711,34.8709,10.8,68,0,2.0,TR,1694566180
477,laborde,-33.1532,-62.8566,9.34,33,100,2.92,AR,1694566181
478,athens,37.9795,23.7162,23.7,44,0,4.12,GR,1694565428
479,antsiranana,-12.2787,49.2917,22.99,71,100,6.03,MG,1694566181
480,chernyshevsk,52.5243,117.0174,11.46,54,92,1.26,RU,1694566181
481,sabang,5.8933,95.3214,27.87,78,100,3.69,ID,1694566181
482,qui nhon,13.7667,109.2333,26.45,81,100,5.27,VN,1694566181
483,tirumakudal narsipur,12.21,76.9064,20.61,93,78,2.46,IN,1694566181
484,asaita,11.5636,41.4394,30.88,40,6,3.32,ET,1694566181
485,swakopmund,-22.6833,14.5333,12.47,79,0,1.34,NA,1694566182
486,miramichi,47.0043,-65.4654,15.23,95,100,1.87,CA,1694566182
487,port isabel,26.0734,-97.2086,33.02,68,0,5.66,US,1694566182
488,teknaf,20.8624,92.3058,26.23,91,97,7.37,BD,1694566182
489,happy valley-goose bay,53.3168,-60.3315,13.17,82,100,1.54,CA,1694566182
490,maine soroa,13.2114,12.0241,28.26,53,15,3.26,NE,1694566182
491,kralendijk,12.15,-68.2667,29.99,84,0,6.69,BQ,1694566182
492,novaya igirma,57.1334,103.9112,9.34,63,93,1.16,RU,1694566183
493,seydi,39.4816,62.9137,17.88,38,0,6.79,TM,1694566183
494,shalkar,47.8288,59.6258,12.38,82,16,2.06,KZ,1694566183
495,pyapon,16.2833,95.6833,24.84,94,100,3.85,MM,1694566183
496,koh kong,11.6175,102.9806,25.76,86,100,3.68,KH,1694566183
497,zhangye,38.9342,100.4517,22.38,24,0,3.9,CN,1694566183
498,pokhara,28.2333,83.9833,23.26,91,71,0.72,NP,1694566184
499,cerignola,41.264,15.9005,18.57,46,5,2.12,IT,1694566184
500,hatillo,18.4863,-66.8254,29.32,87,100,0.89,PR,1694566005
501,bunia,1.5667,30.25,17.2,89,9,1.11,CD,1694566184
502,vikulovo,56.8167,70.6107,6.81,92,1,3.11,RU,1694566184
503,las tablas,7.7667,-80.2833,27.87,99,100,1.57,PA,1694566184
504,palmerston north,-40.35,175.6167,16.7,65,50,2.24,NZ,1694566083
505,waddan,29.1614,16.139,21.87,61,0,1.44,LY,1694566185
506,bandundu,-3.3167,17.3667,25.68,70,10,1.9,CD,1694566185
507,newman,37.3138,-121.0208,34.19,27,0,2.24,US,1694566185
508,alaghsas,17.0187,8.0168,32.19,17,100,4.34,NE,1694566185
509,carutapera,-1.195,-46.02,25.74,80,5,3.48,BR,1694566185
510,baardheere,2.3446,42.2764,25.39,74,17,6.07,SO,1694566185
511,oodweyne,9.4092,45.064,24.93,51,100,5.54,SO,1694566185
512,ulaangom,49.9811,92.0667,13.62,72,14,2.05,MN,1694566185
513,melekeok village,7.4957,134.6367,26.31,94,100,5.14,PW,1694566186
514,kolda,12.8833,-14.95,27.17,94,0,0.0,SN,1694566186
515,catemaco,18.4167,-95.1167,23.67,89,7,1.52,MX,1694565979
516,kubinka,55.5839,36.69,8.0,77,3,1.61,RU,1694566186
517,ilha de mocambique,-15.0342,40.7358,24.49,81,12,2.96,MZ,1694566186
518,akhalk'alak'i,41.4051,43.4863,7.33,87,100,0.37,GE,1694566186
519,camarinas,43.1311,-9.1817,18.29,91,5,5.27,ES,1694566186
520,labytnangi,66.6572,66.4183,9.52,89,17,3.58,RU,1694566186
521,ende,-8.8432,121.6623,29.1,53,29,1.13,ID,1694566187
522,yuzhno-kurilsk,44.0306,145.8556,18.91,98,100,3.24,RU,1694566187
523,al khums,32.6486,14.2619,23.97,69,0,2.87,LY,1694566187
524,la passe,45.5549,-0.8967,19.43,83,100,3.75,FR,1694566187
525,nioki,-2.7167,17.6833,24.64,78,9,1.1,CD,1694566187
526,sao vicente,-23.9631,-46.3919,29.59,60,0,1.07,BR,1694566187
527,puerto deseado,-47.7503,-65.8938,5.83,65,6,2.79,AR,1694566187
528,nadi,-17.8,177.4167,29.0,54,20,6.17,FJ,1694566188
529,rufino,-34.2683,-62.7126,11.55,33,100,2.45,AR,1694566188
530,trondheim,63.4305,10.3951,9.4,88,100,1.79,NO,1694566065
531,gadsden,34.0143,-86.0066,28.01,74,20,1.54,US,1694565911
532,kourou,5.1552,-52.6478,27.03,79,62,5.88,GF,1694566188
533,ipatovo,45.7181,42.9036,14.25,41,64,1.05,RU,1694566188
534,praia da vitoria,38.7333,-27.0667,23.2,88,20,4.25,PT,1694566188
535,barreirinhas,-2.7469,-42.8264,25.74,80,0,5.15,BR,1694566188
536,salahonda,2.1019,-78.7217,26.57,82,68,5.43,CO,1694566188
537,aral,40.5156,81.2636,22.57,32,23,3.75,CN,1694566189
538,nar'yan-mar,67.6713,53.087,11.17,84,13,7.39,RU,1694566189
539,punta alta,-38.8759,-62.0736,11.71,50,0,3.09,AR,1694566189
540,paungde,18.4833,95.5,24.06,97,100,4.69,MM,1694566189
541,midleton,51.9153,-8.1805,10.88,86,29,2.06,IE,1694566189
542,albina,5.5,-54.05,25.48,79,6,2.34,SR,1694566189
543,the pas,53.8251,-101.2541,17.01,51,15,7.2,CA,1694566189
544,ad dawadimi,24.5077,44.3924,28.64,18,68,4.71,SA,1694566190
545,north platte,41.1239,-100.7654,21.94,47,0,2.68,US,1694566190
546,san mariano,7.5,126.0,27.55,74,100,1.37,PH,1694566190
547,lata,40.1629,-8.3327,18.23,96,1,1.01,PT,1694566190
548,buchanan,5.8808,-10.0467,24.42,91,36,1.88,LR,1694566190
549,basco,20.4487,121.9702,27.4,70,21,1.44,PH,1694566190
550,holdrege,40.4403,-99.3698,21.6,54,0,0.0,US,1694566190
551,oxelosund,58.6706,17.1015,15.21,94,40,2.06,SE,1694566191
552,lospalos,-8.5186,127.0025,25.38,67,46,5.15,TL,1694566191
553,nikolayevsk-on-amure,53.1406,140.73,16.13,44,0,5.16,RU,1694566191
554,el calafate,-50.3408,-72.2768,2.06,70,100,1.08,AR,1694566191
555,dwarka,22.2394,68.9678,27.05,83,64,5.48,IN,1694566191
556,ouadda,8.0777,22.4007,20.56,97,96,0.63,CF,1694566191
557,cabedelo,-6.9811,-34.8339,23.37,86,48,6.92,BR,1694566191
558,guarapari,-20.6667,-40.4975,22.72,86,0,4.64,BR,1694566191
559,chibougamau,49.9168,-74.3659,13.79,82,100,3.09,CA,1694566192
560,key largo,25.0865,-80.4473,29.44,73,20,6.25,US,1694566091
